[
  {
    "name": "50嵐",
    "add": "台北市中山區吉林路185號",
    "phone": "02-2100-1912",
    "disc": "650ml以上折價2元,以下折價1元",
    "latitude": "25.0596898",
    "longitude": "121.5303953"
  },
  {
    "name": "50嵐",
    "add": "台北市中山區長安東路二段47-3號",
    "phone": "02-2522-2050",
    "disc": "650ml以上折價2元,以下折價1元",
    "latitude": "25.0486073",
    "longitude": "121.5321429"
  },
  {
    "name": "50嵐",
    "add": "台北市中山區合江街111號",
    "phone": "02-2504-5433",
    "disc": "650ml以上折價2元,以下折價1元",
    "latitude": "25.0600268",
    "longitude": "121.5393012"
  },
  {
    "name": "50嵐",
    "add": "台北市中山區遼寧街28號",
    "phone": "02-2773-7808",
    "disc": "650ml以上折價2元,以下折價1元",
    "latitude": "25.0479077",
    "longitude": "121.542047"
  },
  {
    "name": "50嵐",
    "add": "台北市中山區錦西街14號",
    "phone": "02-2563-1567",
    "disc": "650ml以上折價2元,以下折價1元",
    "latitude": "25.060194",
    "longitude": "121.5213468"
  },
  {
    "name": "50嵐",
    "add": "台北市中山區四平街40號",
    "phone": "02-2521-3570",
    "disc": "650ml以上折價2元,以下折價1元",
    "latitude": "25.0535786",
    "longitude": "121.532107"
  },
  {
    "name": "50嵐",
    "add": "台北市中山區林森北路93號",
    "phone": "02-2523-6047",
    "disc": "650ml以上折價2元,以下折價1元",
    "latitude": "25.0500498",
    "longitude": "121.5249703"
  },
  {
    "name": "50嵐",
    "add": "台北市中山區農安街22號",
    "phone": "02-2599-2566",
    "disc": "650ml以上折價2元,以下折價1元",
    "latitude": "25.0648279",
    "longitude": "121.525104"
  },
  {
    "name": "50嵐",
    "add": "台北市中山區伊通街66-2號",
    "phone": "02-2502-6131",
    "disc": "650ml以上折價2元,以下折價1元",
    "latitude": "25.0526399",
    "longitude": "121.5345528"
  },
  {
    "name": "50嵐",
    "add": "台北市中山區北安路571-3號",
    "phone": "02-2532-1150",
    "disc": "650ml以上折價2元,以下折價1元",
    "latitude": "25.081083",
    "longitude": "121.548324"
  },
  {
    "name": "50嵐",
    "add": "台北市中山區南京西路12巷3號",
    "phone": "02-2567-3355",
    "disc": "650ml以上折價2元,以下折價1元",
    "latitude": "25.051986",
    "longitude": "121.521487"
  },
  {
    "name": "50嵐",
    "add": "台北市中山區大直街51號",
    "phone": "02-2533-1350",
    "disc": "650ml以上折價2元,以下折價1元",
    "latitude": "25.083095",
    "longitude": "121.5464509"
  },
  {
    "name": "85度C",
    "add": "台北市中山區長春路146號",
    "phone": "02-25813997",
    "disc": "任何飲品折3元",
    "latitude": "25.0547209",
    "longitude": "121.5317037"
  },
  {
    "name": "85度C",
    "add": "台北市中山區龍江路358號",
    "phone": "02-25095038",
    "disc": "任何飲品折3元",
    "latitude": "25.0660775",
    "longitude": "121.5408698"
  },
  {
    "name": "85度C",
    "add": "台北市中山區吉林路201號",
    "phone": "02-25431472",
    "disc": "任何飲品折3元",
    "latitude": "25.0600008",
    "longitude": "121.5303922"
  },
  {
    "name": "85度C",
    "add": "台北市中山區錦州街28-8號",
    "phone": "02-2521-6798",
    "disc": "任何飲品折3元",
    "latitude": "25.0601897",
    "longitude": "121.5246327"
  },
  {
    "name": "85度C",
    "add": "台北市中山區長安東路2段173號",
    "phone": "02-2777-4089",
    "disc": "任何飲品折3元",
    "latitude": "25.0485337",
    "longitude": "121.5422714"
  },
  {
    "name": "CAMA",
    "add": "台北市中山區長安東路二段94號",
    "phone": "02-25185377",
    "disc": "任何飲品皆折1元(本店飲品為360ml)",
    "latitude": "25.0483328",
    "longitude": "121.5346171"
  },
  {
    "name": "CAMA",
    "add": "台北市中山區長春路133-5號",
    "phone": "02-25219791",
    "disc": "任何飲品皆折1元(本店飲品為360ml)",
    "latitude": "25.0549773",
    "longitude": "121.5312674"
  },
  {
    "name": "CAMA",
    "add": "台北市中山區長安東路一段19號",
    "phone": "02-25713300",
    "disc": "任何飲品皆折1元(本店飲品為360ml)",
    "latitude": "25.0497328",
    "longitude": "121.5231167"
  },
  {
    "name": "CAMA",
    "add": "台北市中山區民權西路73號",
    "phone": "02-25869869",
    "disc": "任何飲品皆折1元(本店飲品為360ml)",
    "latitude": "25.0630458",
    "longitude": "121.5198889"
  },
  {
    "name": "CAMA",
    "add": "台北市中山區長春路366號",
    "phone": "02-27136628",
    "disc": "任何飲品皆折1元(本店飲品為360ml)",
    "latitude": "25.0544752",
    "longitude": "121.5425463"
  },
  {
    "name": "CAMA",
    "add": "台北市中山區中山北路三段25之10號",
    "phone": "02-25995772",
    "disc": "任何飲品皆折1元(本店飲品為360ml)",
    "latitude": "25.0652186",
    "longitude": "121.5225222"
  },
  {
    "name": "CAMA",
    "add": "台北市中山區南京東路三段82號",
    "phone": "02-2500-0592",
    "disc": "任何飲品皆折1元(本店飲品為360ml)",
    "latitude": "25.0517556",
    "longitude": "121.5393934"
  },
  {
    "name": "CAMA",
    "add": "台北市中山區民生東路二段133號",
    "phone": "02-25116393",
    "disc": "任何飲品皆折1元(本店飲品為360ml)",
    "latitude": "25.0581016",
    "longitude": "121.5323297"
  },
  {
    "name": "CAMA",
    "add": "台北市中山區民生東路一段2號",
    "phone": "02-25683197",
    "disc": "任何飲品皆折1元(本店飲品為360ml)",
    "latitude": "25.057838",
    "longitude": "121.5232106"
  },
  {
    "name": "CAMA",
    "add": "台北市中山區民權東路二段97號",
    "phone": "02-25931181",
    "disc": "任何飲品皆折1元(本店飲品為360ml)",
    "latitude": "25.0626921",
    "longitude": "121.5324311"
  },
  {
    "name": "CAMA",
    "add": "台北市中山區植福路308號",
    "phone": "(02)8502-1518",
    "disc": "任何飲品皆折1元(本店飲品為360ml)",
    "latitude": "25.0809533",
    "longitude": "121.5610135"
  },
  {
    "name": "CHAFFEE",
    "add": "台北市中山區南京西路14號B1",
    "phone": "02-25816698",
    "disc": "任何飲品皆折2元",
    "latitude": "25.0521315",
    "longitude": "121.520677"
  },
  {
    "name": "CHAFFEE",
    "add": "台北市中山區復興北路152號1樓",
    "phone": "02-27199900",
    "disc": "任何飲品皆折2元",
    "latitude": "25.0528945",
    "longitude": "121.5438236"
  },
  {
    "name": "CoCo都可",
    "add": "台北市中山區林森北路438號",
    "phone": "(02)2571-6156",
    "disc": "任何飲品皆2元",
    "latitude": "25.0605386",
    "longitude": "121.5254231"
  },
  {
    "name": "CoCo都可",
    "add": "台北市中山區龍江路350號",
    "phone": "(02)2501-8189",
    "disc": "任何飲品皆2元",
    "latitude": "25.0657761",
    "longitude": "121.5408584"
  },
  {
    "name": "CoCo都可",
    "add": "台北市中山區大直街49號",
    "phone": "(02)2533-6672",
    "disc": "任何飲品皆2元",
    "latitude": "25.083049",
    "longitude": "121.54645"
  },
  {
    "name": "CoCo都可",
    "add": "台北市中山區長安東路二段171之5號",
    "phone": "(02)2731-5098",
    "disc": "任何飲品皆2元",
    "latitude": "25.0483927",
    "longitude": "121.5420191"
  },
  {
    "name": "CoCo都可",
    "add": "台北市中山區林森北路438號",
    "phone": "(02)2571-6156",
    "disc": "任何飲品皆折2元",
    "latitude": "25.0605386",
    "longitude": "121.5254231"
  },
  {
    "name": "CoCo都可",
    "add": "台北市中山區龍江路350號",
    "phone": "(02)2501-8189",
    "disc": "任何飲品皆折2元",
    "latitude": "25.0657761",
    "longitude": "121.5408584"
  },
  {
    "name": "CoCo都可",
    "add": "台北市中山區大直街49號",
    "phone": "(02)2533-6672",
    "disc": "任何飲品皆折2元",
    "latitude": "25.083049",
    "longitude": "121.54645"
  },
  {
    "name": "CoCo都可",
    "add": "台北市中山區長安東路二段171之5號",
    "phone": "(02)2731-5098",
    "disc": "任何飲品皆折2元",
    "latitude": "25.0483927",
    "longitude": "121.5420191"
  },
  {
    "name": "ipartea茶聚",
    "add": "台北市中山區長春路172號",
    "phone": "02-25180896",
    "disc": "650ml以上折價2元,以下折價1元",
    "latitude": "25.05458",
    "longitude": "121.533823"
  },
  {
    "name": "OK mart",
    "add": "台北市中山區中原街41號",
    "phone": "02-66171641",
    "disc": "任何飲品折3元",
    "latitude": "25.0570718",
    "longitude": "121.5289457"
  },
  {
    "name": "OK mart",
    "add": "台北市中山區中原街8號",
    "phone": "02-66177795",
    "disc": "任何飲品折3元",
    "latitude": "25.0561846",
    "longitude": "121.528792"
  },
  {
    "name": "OK mart",
    "add": "台北市中山區北安路476號",
    "phone": "02-66172043",
    "disc": "任何飲品折3元",
    "latitude": "25.079609",
    "longitude": "121.545121"
  },
  {
    "name": "OK mart",
    "add": "台北市中山區民權東路二段71巷7號",
    "phone": "02-66171699",
    "disc": "任何飲品折3元",
    "latitude": "25.0631515",
    "longitude": "121.5318359"
  },
  {
    "name": "OK mart",
    "add": "台北市中山區林森北路360號1樓",
    "phone": "02-66171129",
    "disc": "任何飲品折3元",
    "latitude": "25.0572698",
    "longitude": "121.5253665"
  },
  {
    "name": "OK mart",
    "add": "台北市中山區南京東路三段86號",
    "phone": "02-66175021",
    "disc": "任何飲品折3元",
    "latitude": "25.0517472",
    "longitude": "121.5394492"
  },
  {
    "name": "OK mart",
    "add": "台北市中山區撫順街21號",
    "phone": "02-66172551",
    "disc": "任何飲品折3元",
    "latitude": "25.0636217",
    "longitude": "121.5205088"
  },
  {
    "name": "OK mart",
    "add": "台北市中山區龍江路47號",
    "phone": "02-66172512",
    "disc": "任何飲品折3元",
    "latitude": "25.0493518",
    "longitude": "121.5405322"
  },
  {
    "name": "OK mart",
    "add": "台北市中山區南京東路三段86號",
    "phone": "02-66175021",
    "disc": "任何飲品折3元",
    "latitude": "25.0517472",
    "longitude": "121.5394492"
  },
  {
    "name": "OK mart",
    "add": "台北市中山區北安路476號",
    "phone": "02-66172043",
    "disc": "任何飲品折3元",
    "latitude": "25.079609",
    "longitude": "121.545121"
  },
  {
    "name": "OK mart",
    "add": "台北市中山區民權東路二段145號",
    "phone": "02-66173375",
    "disc": "任何飲品折3元",
    "latitude": "25.0628568",
    "longitude": "121.5356976"
  },
  {
    "name": "OK mart",
    "add": "台北市中山區北安路387號1樓",
    "phone": "02-66130702",
    "disc": "任何飲品折3元",
    "latitude": "25.0796503",
    "longitude": "121.5403117"
  },
  {
    "name": "一手私藏世界紅茶",
    "add": "台北市中山區八德路2段277號",
    "phone": "02-27523168",
    "disc": "任何飲品皆折2元",
    "latitude": "25.0472235",
    "longitude": "121.5416014"
  },
  {
    "name": "一芳YI FANG 台灣水果茶",
    "add": "台北市中山區錦州街410號",
    "phone": "02-25078166",
    "disc": "任何飲品皆折2元",
    "latitude": "25.0601336",
    "longitude": "121.5416731"
  },
  {
    "name": "一芳YI FANG 台灣水果茶",
    "add": "台北市中山區伊通街123號",
    "phone": "02-25082604",
    "disc": "任何飲品皆折2元",
    "latitude": "25.0539451",
    "longitude": "121.5349609"
  },
  {
    "name": "大苑子",
    "add": "台北市中山區伊通街127-4號",
    "phone": "02-25060760",
    "disc": "任何飲品皆折2元",
    "latitude": "25.0542917",
    "longitude": "121.5349718"
  },
  {
    "name": "大苑子",
    "add": "台北市中山區合江街113號",
    "phone": "02-25081238",
    "disc": "任何飲品皆折2元",
    "latitude": "25.0600785",
    "longitude": "121.539306"
  },
  {
    "name": "大苑子",
    "add": "台北市中山區錦西街5號",
    "phone": "02-25218196",
    "disc": "任何飲品皆折2元",
    "latitude": "25.0604727",
    "longitude": "121.5220699"
  },
  {
    "name": "日出茶太Chatime",
    "add": "台北市中山區敬業三路20號(美麗華百樂園B1)",
    "phone": "02-2175-3020",
    "disc": " 650ml以上折價2元,以下折價1元",
    "latitude": "25.0833072",
    "longitude": "121.5571648"
  },
  {
    "name": "水巷茶弄",
    "add": "台北市中山區松江路297巷18號",
    "phone": "(02)2517-4782",
    "disc": "任何飲品皆折2元",
    "latitude": "25.0609466",
    "longitude": "121.5346318"
  },
  {
    "name": "水巷茶弄",
    "add": "台北市中山區長春路368號",
    "phone": "(02)2713-3811",
    "disc": "任何飲品皆折2元",
    "latitude": "25.054424",
    "longitude": "121.542664"
  },
  {
    "name": "可不可熟成紅茶",
    "add": "台北市中山區雙城街15-5號",
    "phone": "02-2585-1515",
    "disc": "任何飲品皆折2元",
    "latitude": "25.0643244",
    "longitude": "121.5244294"
  },
  {
    "name": "可不可熟成紅茶",
    "add": "台北市中山區伊通街47號",
    "phone": "02-2517-5510",
    "disc": "任何飲品皆折2元",
    "latitude": "25.0511265",
    "longitude": "121.5349326"
  },
  {
    "name": "可不可熟成紅茶",
    "add": "台北市中山區錦州街335號",
    "phone": "02-2507-4633",
    "disc": "任何飲品皆折2元",
    "latitude": "25.0603116",
    "longitude": "121.5390977"
  },
  {
    "name": "先喝道",
    "add": "台北市中山區南京東路二段95號",
    "phone": "02-55760688",
    "disc": "任何飲品皆折2元",
    "latitude": "25.0523245",
    "longitude": "121.5323213"
  },
  {
    "name": "全家便利商店",
    "add": "台北市中山區新生北路一段116號",
    "phone": "02-25817485",
    "disc": "任何飲品折3元",
    "latitude": "25.0505894",
    "longitude": "121.527773"
  },
  {
    "name": "全家便利商店",
    "add": "台北市中山區農安街86號1樓",
    "phone": "02-25994657",
    "disc": "任何飲品折3元",
    "latitude": "25.0647448",
    "longitude": "121.5292794"
  },
  {
    "name": "全家便利商店",
    "add": "台北市中山區德惠街16-7號",
    "phone": "02-25995447",
    "disc": "任何飲品折3元",
    "latitude": "25.0665771",
    "longitude": "121.5247074"
  },
  {
    "name": "全家便利商店",
    "add": "台北市中山區民生東路一段39號",
    "phone": "02-25212132",
    "disc": "任何飲品折3元",
    "latitude": "25.0582094",
    "longitude": "121.5259272"
  },
  {
    "name": "全家便利商店",
    "add": "台北市中山區恆安里農安街26-3號1樓",
    "phone": "02-25968538",
    "disc": "任何飲品折3元",
    "latitude": "25.0647867",
    "longitude": "121.5258998"
  },
  {
    "name": "全家便利商店",
    "add": "台北市中山區農安街4-1號",
    "phone": "02-25955820",
    "disc": "任何飲品折3元",
    "latitude": "25.0648443",
    "longitude": "121.5230813"
  },
  {
    "name": "全家便利商店",
    "add": "台北市中山區復興北路514巷35號",
    "phone": "02-25097685",
    "disc": "任何飲品折3元",
    "latitude": "25.066063",
    "longitude": "121.5426951"
  },
  {
    "name": "全家便利商店",
    "add": "台北市中山區龍江路95號1樓",
    "phone": "02-87725827",
    "disc": "任何飲品折3元",
    "latitude": "25.0513749",
    "longitude": "121.5405235"
  },
  {
    "name": "全家便利商店",
    "add": "台北市中山區松江路330巷33號",
    "phone": "02-25715620",
    "disc": "任何飲品折3元",
    "latitude": "25.0612771",
    "longitude": "121.5316596"
  },
  {
    "name": "全家便利商店",
    "add": "台北市中山區林森北路630號1樓",
    "phone": "02-25977209",
    "disc": "任何飲品折3元",
    "latitude": "25.0675597",
    "longitude": "121.5256092"
  },
  {
    "name": "全家便利商店",
    "add": "台北市中山區中原街16號1樓",
    "phone": "02-25113653",
    "disc": "任何飲品折3元",
    "latitude": "25.0565165",
    "longitude": "121.5287948"
  },
  {
    "name": "全家便利商店",
    "add": "台北市中山區錦州街427號",
    "phone": "02-25172305",
    "disc": "任何飲品折3元",
    "latitude": "25.0603117",
    "longitude": "121.5424901"
  },
  {
    "name": "全家便利商店",
    "add": "台北市中山區林森北路149-1號1樓",
    "phone": "02-25230478",
    "disc": "任何飲品折3元",
    "latitude": "25.05148",
    "longitude": "121.525374"
  },
  {
    "name": "全家便利商店",
    "add": "台北市中山區民生西路29號",
    "phone": "02-25316236",
    "disc": "任何飲品折3元",
    "latitude": "25.0578589",
    "longitude": "121.5211941"
  },
  {
    "name": "全家便利商店",
    "add": "台北市中山區樂群二路142號1樓",
    "phone": "02-85011290",
    "disc": "任何飲品折3元",
    "latitude": "25.0797194",
    "longitude": "121.5566683"
  },
  {
    "name": "全家便利商店",
    "add": "台北市中山區北安路819之1號",
    "phone": "02-85095070",
    "disc": "任何飲品折3元",
    "latitude": "25.085005",
    "longitude": "121.556106"
  },
  {
    "name": "全家便利商店",
    "add": "台北市中山區新生北路二段62巷38-3號",
    "phone": "02-25678382",
    "disc": "任何飲品折3元",
    "latitude": "25.056147",
    "longitude": "121.525905"
  },
  {
    "name": "全家便利商店",
    "add": "台北市中山區伊通街108號1樓",
    "phone": "02-25029136",
    "disc": "任何飲品折3元",
    "latitude": "25.0541429",
    "longitude": "121.5347048"
  },
  {
    "name": "全家便利商店",
    "add": "台北市中山區長春路48號",
    "phone": "02-25817796",
    "disc": "任何飲品折3元",
    "latitude": "25.0548182",
    "longitude": "121.525771"
  },
  {
    "name": "全家便利商店",
    "add": "台北市中山區林森北路107巷54號",
    "phone": "02-25629310",
    "disc": "任何飲品折3元",
    "latitude": "25.0498218",
    "longitude": "121.5267934"
  },
  {
    "name": "全家便利商店",
    "add": "台北市中山區雙城街19巷2號",
    "phone": "02-25994347",
    "disc": "任何飲品折3元",
    "latitude": "25.0653749",
    "longitude": "121.5243853"
  },
  {
    "name": "全家便利商店",
    "add": "台北市中山區林森北路308號",
    "phone": "02-25219884",
    "disc": "任何飲品折3元",
    "latitude": "25.056107",
    "longitude": "121.525242"
  },
  {
    "name": "全家便利商店",
    "add": "台北市中山區伊通街58號",
    "phone": "02-25181554",
    "disc": "任何飲品折3元",
    "latitude": "25.0515222",
    "longitude": "121.5346333"
  },
  {
    "name": "全家便利商店",
    "add": "台北市中山區雙城街12之1號",
    "phone": "02-25996056",
    "disc": "任何飲品折3元",
    "latitude": "25.064542",
    "longitude": "121.524209"
  },
  {
    "name": "全家便利商店",
    "add": "台北市中山區林森北路109號1樓",
    "phone": "02-25629847",
    "disc": "任何飲品折3元",
    "latitude": "25.0504072",
    "longitude": "121.5251449"
  },
  {
    "name": "全家便利商店",
    "add": "台北市中山區北安路387號",
    "phone": "02-25338346",
    "disc": "任何飲品折3元",
    "latitude": "25.0796503",
    "longitude": "121.5403117"
  },
  {
    "name": "全家便利商店",
    "add": "台北市中山區大直街11號",
    "phone": "02-25328364",
    "disc": "任何飲品折3元",
    "latitude": "25.0809055",
    "longitude": "121.546514"
  },
  {
    "name": "全家便利商店",
    "add": "台北市中山區雙城街2-2號",
    "phone": "02-25992453",
    "disc": "任何飲品折3元",
    "latitude": "25.063175",
    "longitude": "121.524312"
  },
  {
    "name": "全家便利商店",
    "add": "台北市中山區長春路100號1樓",
    "phone": "02-25314871",
    "disc": "任何飲品折3元",
    "latitude": "25.0547762",
    "longitude": "121.5279422"
  },
  {
    "name": "全家便利商店",
    "add": "台北市中山區農安街160號",
    "phone": "02-25028032",
    "disc": "任何飲品折3元",
    "latitude": "25.0645895",
    "longitude": "121.5339907"
  },
  {
    "name": "全家便利商店",
    "add": "台北市中山區四平街47號",
    "phone": "02-25318666",
    "disc": "任何飲品折3元",
    "latitude": "25.053828",
    "longitude": "121.5323616"
  },
  {
    "name": "全家便利商店",
    "add": "台北市中山區林森北路119巷49號",
    "phone": "02-25230561",
    "disc": "任何飲品折3元",
    "latitude": "25.0503888",
    "longitude": "121.5267831"
  },
  {
    "name": "全家便利商店",
    "add": "台北市中山區明水路581巷11號1樓",
    "phone": "02-85097543",
    "disc": "任何飲品折3元",
    "latitude": "25.0801384",
    "longitude": "121.5511958"
  },
  {
    "name": "全家便利商店",
    "add": "台北市中山區南京東路三段65號",
    "phone": "02-25066873",
    "disc": "任何飲品折3元",
    "latitude": "25.0521956",
    "longitude": "121.5384073"
  },
  {
    "name": "全家便利商店",
    "add": "台北市中山區一江街22號1樓",
    "phone": "02-25678224",
    "disc": "任何飲品折3元",
    "latitude": "25.0527301",
    "longitude": "121.531402"
  },
  {
    "name": "全家便利商店",
    "add": "台北市中山區民權東路三段64號1樓",
    "phone": "02-25171595",
    "disc": "任何飲品折3元",
    "latitude": "25.0621372",
    "longitude": "121.5426523"
  },
  {
    "name": "全家便利商店",
    "add": "台北市中山區朱崙街67號",
    "phone": "02-27528615",
    "disc": "任何飲品折3元",
    "latitude": "25.050064",
    "longitude": "121.5423503"
  },
  {
    "name": "全家便利商店",
    "add": "台北市中山區合江街87號1樓",
    "phone": "02-25185276",
    "disc": "任何飲品折3元",
    "latitude": "25.0592819",
    "longitude": "121.53928"
  },
  {
    "name": "全家便利商店",
    "add": "台北市中山區吉林路314號",
    "phone": "02-25628106",
    "disc": "任何飲品折3元",
    "latitude": "25.0621665",
    "longitude": "121.5301398"
  },
  {
    "name": "全家便利商店",
    "add": "台北市中山區德惠街34之2號1樓",
    "phone": "02-25955703",
    "disc": "任何飲品折3元",
    "latitude": "25.0665886",
    "longitude": "121.5261774"
  },
  {
    "name": "全家便利商店",
    "add": "台北市中山區松江路24之1號",
    "phone": "02-25670175",
    "disc": "任何飲品折3元",
    "latitude": "25.0470335",
    "longitude": "121.5327543"
  },
  {
    "name": "全家便利商店",
    "add": "台北市中山區民生東路一段27巷15號",
    "phone": "02-25222731",
    "disc": "任何飲品折3元",
    "latitude": "25.0586922",
    "longitude": "121.5251401"
  },
  {
    "name": "全家便利商店",
    "add": "台北市中山區建國北路三段111號1樓",
    "phone": "02-25159357",
    "disc": "任何飲品折3元",
    "latitude": "25.0664378",
    "longitude": "121.5360557"
  },
  {
    "name": "全家便利商店",
    "add": "台北市中山區北安路630巷7號1樓",
    "phone": "02-25322254",
    "disc": "任何飲品折3元",
    "latitude": "25.08286",
    "longitude": "121.549484"
  },
  {
    "name": "全家便利商店",
    "add": "台北市中山區民族東路410巷23弄24號",
    "phone": "02-25185693",
    "disc": "任何飲品折3元",
    "latitude": "25.066738",
    "longitude": "121.539567"
  },
  {
    "name": "全家便利商店",
    "add": "台北市中山區長安東路一段55號",
    "phone": "02-25239542",
    "disc": "任何飲品折3元",
    "latitude": "25.0487812",
    "longitude": "121.5265545"
  },
  {
    "name": "全家便利商店",
    "add": "台北市中山區中山北路一段58號",
    "phone": "02-25638109",
    "disc": "任何飲品折3元",
    "latitude": "25.048525",
    "longitude": "121.5206408"
  },
  {
    "name": "全家便利商店",
    "add": "台北市中山區北安路458巷47弄13號1樓",
    "phone": "02-25324099",
    "disc": "任何飲品折3元",
    "latitude": "25.07824",
    "longitude": "121.545667"
  },
  {
    "name": "全家便利商店",
    "add": "台北市中山區正義里天津街47號1樓",
    "phone": "02-25635367",
    "disc": "任何飲品折3元",
    "latitude": "25.0501523",
    "longitude": "121.5231131"
  },
  {
    "name": "全家便利商店",
    "add": "台北市中山區林森北路428號1樓",
    "phone": "02-25684923",
    "disc": "任何飲品折3元",
    "latitude": "25.0599931",
    "longitude": "121.5253817"
  },
  {
    "name": "全家便利商店",
    "add": "台北市中山區五常街53巷23號1號",
    "phone": "02-25067078",
    "disc": "任何飲品折3元",
    "latitude": "25.0654831",
    "longitude": "121.5397263"
  },
  {
    "name": "全家便利商店",
    "add": "台北市中山區龍江路201號1F",
    "phone": "02-25012043",
    "disc": "任何飲品折3元",
    "latitude": "25.0562798",
    "longitude": "121.5406666"
  },
  {
    "name": "全家便利商店",
    "add": "台北市中山區中原街101號1樓",
    "phone": "02-25412311",
    "disc": "任何飲品折3元",
    "latitude": "25.0609288",
    "longitude": "121.5290416"
  },
  {
    "name": "全家便利商店",
    "add": "台北市中山區中山北路二段59之3號1樓",
    "phone": "02-25230023",
    "disc": "任何飲品折3元",
    "latitude": "25.05592",
    "longitude": "121.523029"
  },
  {
    "name": "全家便利商店",
    "add": "台北市中山區南京西路16號B1",
    "phone": "02-25557010",
    "disc": "任何飲品折3元",
    "latitude": "25.0521912",
    "longitude": "121.5221371"
  },
  {
    "name": "全家便利商店",
    "add": "台北市中山區林森北路399巷10號1樓",
    "phone": "02-25239913",
    "disc": "任何飲品折3元",
    "latitude": "25.0591939",
    "longitude": "121.525877"
  },
  {
    "name": "全家便利商店",
    "add": "台北市中山區伊通街39號1樓",
    "phone": "02-25153716",
    "disc": "任何飲品折3元",
    "latitude": "25.0507074",
    "longitude": "121.5349375"
  },
  {
    "name": "全家便利商店",
    "add": "台北市中山區大直街33巷1號",
    "phone": "02-25328875",
    "disc": "任何飲品折3元",
    "latitude": "25.0821625",
    "longitude": "121.5465692"
  },
  {
    "name": "全家便利商店",
    "add": "台北市中山區錦西街8號",
    "phone": "02-25673231",
    "disc": "任何飲品折3元",
    "latitude": "25.0602893",
    "longitude": "121.5220956"
  },
  {
    "name": "全家便利商店",
    "add": "台北市中山區錦州街215號",
    "phone": "02-25638875",
    "disc": "任何飲品折3元",
    "latitude": "25.0604313",
    "longitude": "121.532221"
  },
  {
    "name": "全家便利商店",
    "add": "台北市中山區通北街111號",
    "phone": "02-25332342",
    "disc": "任何飲品折3元",
    "latitude": "25.084304",
    "longitude": "121.5380032"
  },
  {
    "name": "全家便利商店",
    "add": "台北市中山區民權東路二段152巷14號",
    "phone": "02-25078797",
    "disc": "任何飲品折3元",
    "latitude": "25.0611749",
    "longitude": "121.5349805"
  },
  {
    "name": "全家便利商店",
    "add": "台北市中山區長安東路二段216號",
    "phone": "02-27405515",
    "disc": "任何飲品折3元",
    "latitude": "25.0481678",
    "longitude": "121.5424494"
  },
  {
    "name": "全家便利商店",
    "add": "台北市中山區北安路458巷41弄48號1樓",
    "phone": "02-25325010",
    "disc": "任何飲品折3元",
    "latitude": "25.078808",
    "longitude": "121.546355"
  },
  {
    "name": "全家便利商店",
    "add": "台北市中山區中山北路二段75-1號1樓",
    "phone": "02-25818863",
    "disc": "任何飲品折3元",
    "latitude": "25.0574405",
    "longitude": "121.5230357"
  },
  {
    "name": "全家便利商店",
    "add": "台北市中山區通北街111號",
    "phone": "02-85095880",
    "disc": "任何飲品折3元",
    "latitude": "25.084304",
    "longitude": "121.5380032"
  },
  {
    "name": "全家便利商店",
    "add": "台北市中山區通北街111號",
    "phone": "02-25332342",
    "disc": "任何飲品折3元",
    "latitude": "25.084304",
    "longitude": "121.5380032"
  },
  {
    "name": "全家便利商店",
    "add": "台北市中山區復興南路一段38號",
    "phone": "02-87725312",
    "disc": "任何飲品折3元",
    "latitude": "25.0454432",
    "longitude": "121.5436916"
  },
  {
    "name": "全家便利商店",
    "add": "台北市中山區南京東路二段26號",
    "phone": "02-25312051",
    "disc": "任何飲品折3元",
    "latitude": "25.0518649",
    "longitude": "121.5290636"
  },
  {
    "name": "全家便利商店",
    "add": "台北市中山區興安街57號",
    "phone": "02-25052013",
    "disc": "任何飲品折3元",
    "latitude": "25.0562339",
    "longitude": "121.5423766"
  },
  {
    "name": "全家便利商店",
    "add": "台北市中山區樂群二路186號",
    "phone": "02-85095167",
    "disc": "任何飲品折3元",
    "latitude": "25.0798868",
    "longitude": "121.5584451"
  },
  {
    "name": "全家便利商店",
    "add": "台北市中山區撫順街12之2號1樓",
    "phone": "02-25927495",
    "disc": "任何飲品折3元",
    "latitude": "25.0634896",
    "longitude": "121.5209553"
  },
  {
    "name": "全家便利商店",
    "add": "台北市中山區吉林路448號",
    "phone": "02-25953593",
    "disc": "任何飲品折3元",
    "latitude": "25.066711",
    "longitude": "121.5302321"
  },
  {
    "name": "全家便利商店",
    "add": "台北市中山區德惠街173號",
    "phone": "02-25961560",
    "disc": "任何飲品折3元",
    "latitude": "25.066646",
    "longitude": "121.5319108"
  },
  {
    "name": "全家便利商店",
    "add": "台北市中山區龍江路356巷72號",
    "phone": "02-25157030",
    "disc": "任何飲品折3元",
    "latitude": "25.065893",
    "longitude": "121.538028"
  },
  {
    "name": "全家便利商店",
    "add": "台北市中山區中山北路二段137巷34號1樓",
    "phone": "02-25716328",
    "disc": "任何飲品折3元",
    "latitude": "25.0616084",
    "longitude": "121.5251465"
  },
  {
    "name": "全家便利商店",
    "add": "台北市中山區民生東路一段36號1樓",
    "phone": "02-25413026",
    "disc": "任何飲品折3元",
    "latitude": "25.0579837",
    "longitude": "121.5243559"
  },
  {
    "name": "全家便利商店",
    "add": "台北市中山區龍江路352號",
    "phone": "02-25169569",
    "disc": "任何飲品折3元",
    "latitude": "25.0658607",
    "longitude": "121.540853"
  },
  {
    "name": "全家便利商店",
    "add": "台北市中山區農安街249號",
    "phone": "02-25042520",
    "disc": "任何飲品折3元",
    "latitude": "25.0648133",
    "longitude": "121.5348622"
  },
  {
    "name": "吉龍糖黑糖茶飲專賣",
    "add": "台北市中山區民權西路42號1樓",
    "phone": "02-2511-5078",
    "disc": "650ml以上折價2元,以下折價1元",
    "latitude": "25.0625809",
    "longitude": "121.5210102"
  },
  {
    "name": "吉龍糖黑糖茶飲專賣",
    "add": "台北市中山區民權東路二段19號台北市中山區1樓",
    "phone": "02-2595-8058",
    "disc": "650ml以上折價2元,以下折價1元",
    "latitude": "25.062875",
    "longitude": "121.5289148"
  },
  {
    "name": "吉龍糖黑糖茶飲專賣",
    "add": "台北市中山區錦州街459號",
    "phone": "02-2500-0658",
    "disc": "650ml以上折價2元,以下折價1元",
    "latitude": "25.0602672",
    "longitude": "121.5435538"
  },
  {
    "name": "老虎堂黑糖專賣店",
    "add": "台北市中山區中山北路一段140巷9號",
    "phone": "02-21001559",
    "disc": "任何飲品皆折1元(本店飲品為500ml)",
    "latitude": "25.051523",
    "longitude": "121.521649"
  },
  {
    "name": "西雅圖極品咖啡",
    "add": "台北市中山區民權東路三段3號",
    "phone": "02-2504-6005",
    "disc": "任何飲品皆折5元",
    "latitude": "25.0625972",
    "longitude": "121.5409948"
  },
  {
    "name": "西雅圖極品咖啡",
    "add": "台北市中山區北安路554巷49號1樓台北市中山區",
    "phone": "02-2533-2949",
    "disc": "任何飲品皆折5元",
    "latitude": "25.0801428",
    "longitude": "121.5501792"
  },
  {
    "name": "西雅圖極品咖啡",
    "add": "台北市中山區民權東路三段三號",
    "phone": "02-2504-6005",
    "disc": "任何飲品皆折5元",
    "latitude": "25.0621266",
    "longitude": "121.544137"
  },
  {
    "name": "西雅圖極品咖啡",
    "add": "台北市中山區北安路554巷49號1樓",
    "phone": "02-25332949",
    "disc": "任何飲品皆折5元",
    "latitude": "25.0801428",
    "longitude": "121.5501792"
  },
  {
    "name": "伯朗咖啡館",
    "add": "台北市中山區南京東路二段218號(建國北路口)",
    "phone": "02-25167669",
    "disc": "任何飲品皆折5元",
    "latitude": "25.0517707",
    "longitude": "121.5363655"
  },
  {
    "name": "伯朗咖啡館",
    "add": "台北市中山區中山北路一段106-1號(長安西路口)",
    "phone": "02-25631685",
    "disc": "任何飲品皆折5元",
    "latitude": "25.0496708",
    "longitude": "121.5212981"
  },
  {
    "name": "伯朗咖啡館",
    "add": "台北市中山區中山北路三段6號",
    "phone": "02-25952595",
    "disc": "任何飲品皆折5元",
    "latitude": "25.0641838",
    "longitude": "121.5219178"
  },
  {
    "name": "伯朗咖啡館",
    "add": "台北市中山區松江路332號",
    "phone": "02-25679093",
    "disc": "任何飲品皆折5元",
    "latitude": "25.061203",
    "longitude": "121.532809"
  },
  {
    "name": "伯朗咖啡館",
    "add": "台北市中山區南京東路二段218號",
    "phone": "02-25167669",
    "disc": "任何飲品皆折5元",
    "latitude": "25.0517707",
    "longitude": "121.5363655"
  },
  {
    "name": "伯朗咖啡館",
    "add": "台北市中山區中山北路一段106-1號",
    "phone": "02-25631685",
    "disc": "任何飲品皆折5元",
    "latitude": "25.0496708",
    "longitude": "121.5212981"
  },
  {
    "name": "伯朗咖啡館",
    "add": "台北市中山區中山北路三段6號",
    "phone": "02-2595-2595",
    "disc": "任何飲品皆折5元",
    "latitude": "25.0641838",
    "longitude": "121.5219178"
  },
  {
    "name": "伯朗咖啡館",
    "add": "台北市中山區松江路332號",
    "phone": "02-25679093",
    "disc": "任何飲品皆折5元",
    "latitude": "25.061203",
    "longitude": "121.532809"
  },
  {
    "name": "春陽茶事",
    "add": "台北市中山區民生西路11號",
    "phone": "02-25217088",
    "disc": "任何飲品皆折2元",
    "latitude": "25.0579128",
    "longitude": "121.5216149"
  },
  {
    "name": "珍煮丹 TRUEDAN",
    "add": "台北市中山區遼寧街65號",
    "phone": "02-8773-8600",
    "disc": "任何飲品皆折2元",
    "latitude": "25.0492691",
    "longitude": "121.5422809"
  },
  {
    "name": "珍煮丹 TRUEDAN",
    "add": "台北市中山區合江街152號一樓",
    "phone": "02-25155583",
    "disc": "任何飲品皆折2元",
    "latitude": "25.0600225",
    "longitude": "121.5391135"
  },
  {
    "name": "珍煮丹 TRUEDAN",
    "add": "台北市中山區南京西路14號1樓",
    "phone": "02-2511-3598",
    "disc": "任何飲品皆折2元",
    "latitude": "25.0521315",
    "longitude": "121.520677"
  },
  {
    "name": "茶湯會",
    "add": "台北市中山區錦州街250號",
    "phone": "02-25176776",
    "disc": "任何飲品皆折2元",
    "latitude": "25.0601644",
    "longitude": "121.5341925"
  },
  {
    "name": "茶湯會",
    "add": "台北市中山區伊通街113號",
    "phone": "02-25181335",
    "disc": "任何飲品皆折2元",
    "latitude": "25.0538487",
    "longitude": "121.5349965"
  },
  {
    "name": "茶湯會",
    "add": "台北市中山區南京西路15號B1F",
    "phone": "02-25812063",
    "disc": "任何飲品皆折2元",
    "latitude": "25.0527485",
    "longitude": "121.5206836"
  },
  {
    "name": "迷客夏",
    "add": "台北市中山區遼寧街38號",
    "phone": "02-2775-5569",
    "disc": "大杯折價2元,中杯折價1元",
    "latitude": "25.0485922",
    "longitude": "121.5420307"
  },
  {
    "name": "迷客夏",
    "add": "台北市中山區臺北市中山區遼寧街38號",
    "phone": "02-2775-5569",
    "disc": "大杯折價2元,中杯折價1元",
    "latitude": "25.0485922",
    "longitude": "121.5420307"
  },
  {
    "name": "迷客夏",
    "add": "台北市中山區伊通街68-3號",
    "phone": "02-2518-5358",
    "disc": "大杯折價2元,中杯折價1元",
    "latitude": "25.052846",
    "longitude": "121.53457"
  },
  {
    "name": "迷客夏",
    "add": "台北市中山區錦州街353號",
    "phone": "02-2507-2598",
    "disc": "大杯折價2元,中杯折價1元",
    "latitude": "25.0603069",
    "longitude": "121.5400666"
  },
  {
    "name": "迷客夏",
    "add": "台北市中山區伊通路68-3號",
    "phone": "02-2518-5358",
    "disc": "大杯折價2元,中杯折價1元",
    "latitude": "25.052846",
    "longitude": "121.5345701"
  },
  {
    "name": "迷客夏",
    "add": "台北市中山區遼寧街38號",
    "phone": "02-27755569",
    "disc": "大杯折價2元,中杯折價1元",
    "latitude": "25.0485922",
    "longitude": "121.5420307"
  },
  {
    "name": "迷客夏",
    "add": "台北市中山區農安街12號",
    "phone": "02-25992338",
    "disc": "大杯折價2元,中杯折價1元",
    "latitude": "25.0648531",
    "longitude": "121.5240703"
  },
  {
    "name": "迷客夏",
    "add": "台北市中山區錦州街353號",
    "phone": "02-25072598",
    "disc": "大杯折價2元,中杯折價1元",
    "latitude": "25.0603069",
    "longitude": "121.5400666"
  },
  {
    "name": "康青龍人文茶飲",
    "add": "台北市中山區伊通街131號",
    "phone": "02-2509-5289",
    "disc": "650ml以上折價2元,以下折價1元",
    "latitude": "25.054482",
    "longitude": "121.5348956"
  },
  {
    "name": "康青龍人文茶飲",
    "add": "台北市中山區雙城街17巷2之1號",
    "phone": "02-2599-1965",
    "disc": "650ml以上折價2元,以下折價1元",
    "latitude": "25.0644455",
    "longitude": "121.5245967"
  },
  {
    "name": "清心福全",
    "add": "台北市中山區雙城街13巷26號",
    "phone": "02-25991177",
    "disc": "650ml以上折價2元,以下折價1元",
    "latitude": "25.0640418",
    "longitude": "121.5253234"
  },
  {
    "name": "清心福全",
    "add": "台北市中山區長春路354號",
    "phone": "02-27192519",
    "disc": "650ml以上折價2元,以下折價1元",
    "latitude": "25.054435",
    "longitude": "121.542212"
  },
  {
    "name": "清心福全",
    "add": "台北市中山區錦西街1-1號",
    "phone": "02-25311222",
    "disc": "650ml以上折價2元,以下折價1元",
    "latitude": "25.0603714",
    "longitude": "121.5225367"
  },
  {
    "name": "清心福全",
    "add": "台北市中山區合江街105號",
    "phone": "02-25010629",
    "disc": "650ml以上折價2元,以下折價1元",
    "latitude": "25.0598353",
    "longitude": "121.5392831"
  },
  {
    "name": "清心福全",
    "add": "台北市中山區長安東路二段46號",
    "phone": "02-25423939",
    "disc": "650ml以上折價2元,以下折價1元",
    "latitude": "25.048326",
    "longitude": "121.5318842"
  },
  {
    "name": "清心福全",
    "add": "台北市中山區四平街118號",
    "phone": "02-25183377",
    "disc": "650ml以上折價2元,以下折價1元",
    "latitude": "25.0535306",
    "longitude": "121.5353945"
  },
  {
    "name": "清心福全",
    "add": "台北市中山區北安路595巷35號",
    "phone": "02-25330098",
    "disc": "650ml以上折價2元,以下折價1元",
    "latitude": "25.082269",
    "longitude": "121.547032"
  },
  {
    "name": "清心福全",
    "add": "台北市中山區錦州街247-1號",
    "phone": "02-25042858",
    "disc": "650ml以上折價2元,以下折價1元",
    "latitude": "25.0604633",
    "longitude": "121.5340317"
  },
  {
    "name": "清心福全",
    "add": "台北市中山區吉林路423號",
    "phone": "02-25860202",
    "disc": "650ml以上折價2元,以下折價1元",
    "latitude": "25.0667121",
    "longitude": "121.5305532"
  },
  {
    "name": "清心福全",
    "add": "台北市中山區復興北路514巷62號",
    "phone": "02-25007119",
    "disc": "650ml以上折價2元,以下折價1元",
    "latitude": "25.065868",
    "longitude": "121.5414274"
  },
  {
    "name": "清心福全",
    "add": "台北市中山區遼寧街43號",
    "phone": "02-27733737",
    "disc": "650ml以上折價2元,以下折價1元",
    "latitude": "25.0487835",
    "longitude": "121.5422487"
  },
  {
    "name": "清心福全",
    "add": "台北市中山區民生東路一段40號",
    "phone": "02-25412121",
    "disc": "650ml以上折價2元,以下折價1元",
    "latitude": "25.0578915",
    "longitude": "121.5243582"
  },
  {
    "name": "清心福全",
    "add": "台北市中山區北安路528號",
    "phone": "02-25335922",
    "disc": "650ml以上折價2元,以下折價1元",
    "latitude": "25.079704",
    "longitude": "121.546447"
  },
  {
    "name": "清心福全",
    "add": "台北市中山區長安東路一段53巷19號",
    "phone": "02-25313533",
    "disc": "650ml以上折價2元,以下折價1元",
    "latitude": "25.050096",
    "longitude": "121.526905"
  },
  {
    "name": "統一超商",
    "add": "台北市中山區北安路621巷48號",
    "phone": "02-25329890",
    "disc": "650ml以上折價2元,以下折價1元",
    "latitude": "25.0827368",
    "longitude": "121.5465264"
  },
  {
    "name": "統一超商",
    "add": "台北市中山區中山北路二段77巷3號5號1樓",
    "phone": "02-25677004",
    "disc": "650ml以上折價2元,以下折價1元",
    "latitude": "25.0576206",
    "longitude": "121.5232335"
  },
  {
    "name": "統一超商",
    "add": "台北市中山區德惠街15號1樓",
    "phone": "02-25995347",
    "disc": "650ml以上折價2元,以下折價1元",
    "latitude": "25.066759",
    "longitude": "121.5260029"
  },
  {
    "name": "統一超商",
    "add": "台北市中山區長春路135號135之1號",
    "phone": "02-25316181",
    "disc": "650ml以上折價2元,以下折價1元",
    "latitude": "25.0549555",
    "longitude": "121.5313399"
  },
  {
    "name": "統一超商",
    "add": "台北市中山區林森北路411號",
    "phone": "02-25636575",
    "disc": "650ml以上折價2元,以下折價1元",
    "latitude": "25.0597579",
    "longitude": "121.5256626"
  },
  {
    "name": "統一超商",
    "add": "台北市中山區大直街70號1樓",
    "phone": "02-85091737",
    "disc": "650ml以上折價2元,以下折價1元",
    "latitude": "25.0845732",
    "longitude": "121.5447286"
  },
  {
    "name": "統一超商",
    "add": "台北市中山區建國北路二段151巷8號1樓",
    "phone": "02-25168142",
    "disc": "650ml以上折價2元,以下折價1元",
    "latitude": "25.0616971",
    "longitude": "121.5380976"
  },
  {
    "name": "統一超商",
    "add": "台北市中山區敬業三路11號1樓",
    "phone": "02-85026219",
    "disc": "650ml以上折價2元,以下折價1元",
    "latitude": "25.0835286",
    "longitude": "121.5556427"
  },
  {
    "name": "統一超商",
    "add": "台北市中山區樂群三路218號1樓",
    "phone": "02-85023114",
    "disc": "650ml以上折價2元,以下折價1元",
    "latitude": "25.0823188",
    "longitude": "121.5579616"
  },
  {
    "name": "統一超商",
    "add": "台北市中山區朱崙街60號1樓",
    "phone": "02-27788824",
    "disc": "650ml以上折價2元,以下折價1元",
    "latitude": "25.0498263",
    "longitude": "121.5435807"
  },
  {
    "name": "統一超商",
    "add": "台北市中山區龍江路322號",
    "phone": "02-25094506",
    "disc": "650ml以上折價2元,以下折價1元",
    "latitude": "25.064906",
    "longitude": "121.5408517"
  },
  {
    "name": "統一超商",
    "add": "台北市中山區復興北路348號1樓",
    "phone": "02-25160812",
    "disc": "650ml以上折價2元,以下折價1元",
    "latitude": "25.059978",
    "longitude": "121.543944"
  },
  {
    "name": "統一超商",
    "add": "台北市中山區吉林路209號1樓2樓",
    "phone": "02-25312934",
    "disc": "650ml以上折價2元,以下折價1元",
    "latitude": "25.0602446",
    "longitude": "121.5303732"
  },
  {
    "name": "統一超商",
    "add": "台北市中山區中山北路三段57號",
    "phone": "02-25957805",
    "disc": "650ml以上折價2元,以下折價1元",
    "latitude": "25.0682475",
    "longitude": "121.5230914"
  },
  {
    "name": "統一超商",
    "add": "台北市中山區長安東路一段53巷1之3號",
    "phone": "02-25813841",
    "disc": "650ml以上折價2元,以下折價1元",
    "latitude": "25.04895",
    "longitude": "121.526364"
  },
  {
    "name": "統一超商",
    "add": "台北市中山區長春路257號",
    "phone": "02-25021405",
    "disc": "650ml以上折價2元,以下折價1元",
    "latitude": "25.054812",
    "longitude": "121.5406743"
  },
  {
    "name": "統一超商",
    "add": "台北市中山區民權西路66號",
    "phone": "02-25116854",
    "disc": "650ml以上折價2元,以下折價1元",
    "latitude": "25.0626036",
    "longitude": "121.5200647"
  },
  {
    "name": "統一超商",
    "add": "台北市中山區伊通街30號1樓",
    "phone": "02-25092665",
    "disc": "650ml以上折價2元,以下折價1元",
    "latitude": "25.0508746",
    "longitude": "121.5346609"
  },
  {
    "name": "統一超商",
    "add": "台北市中山區林森北路262號",
    "phone": "02-25217133",
    "disc": "650ml以上折價2元,以下折價1元",
    "latitude": "25.0546678",
    "longitude": "121.5253106"
  },
  {
    "name": "統一超商",
    "add": "台北市中山區長春路11號",
    "phone": "02-25112677",
    "disc": "650ml以上折價2元,以下折價1元",
    "latitude": "25.0550572",
    "longitude": "121.5236508"
  },
  {
    "name": "統一超商",
    "add": "台北市中山區林森北路500號",
    "phone": "02-25111563",
    "disc": "650ml以上折價2元,以下折價1元",
    "latitude": "25.0618477",
    "longitude": "121.5254793"
  },
  {
    "name": "統一超商",
    "add": "台北市中山區新生北路三段35號",
    "phone": "02-25850268",
    "disc": "650ml以上折價2元,以下折價1元",
    "latitude": "25.0649652",
    "longitude": "121.5280549"
  },
  {
    "name": "統一超商",
    "add": "台北市中山區合江街117號",
    "phone": "02-25040526",
    "disc": "650ml以上折價2元,以下折價1元",
    "latitude": "25.0603401",
    "longitude": "121.5393178"
  },
  {
    "name": "統一超商",
    "add": "台北市中山區北安路649號",
    "phone": "02-25330894",
    "disc": "650ml以上折價2元,以下折價1元",
    "latitude": "25.0840608",
    "longitude": "121.549137"
  },
  {
    "name": "統一超商",
    "add": "台北市中山區松江路183號183-1號1樓",
    "phone": "02-25153336",
    "disc": "650ml以上折價2元,以下折價1元",
    "latitude": "25.0563979",
    "longitude": "121.5333247"
  },
  {
    "name": "統一超商",
    "add": "台北市中山區松江路363號",
    "phone": "02-25184764",
    "disc": "650ml以上折價2元,以下折價1元",
    "latitude": "25.0639734",
    "longitude": "121.5334334"
  },
  {
    "name": "統一超商",
    "add": "台北市中山區長春路182號",
    "phone": "02-25068651",
    "disc": "650ml以上折價2元,以下折價1元",
    "latitude": "25.0546082",
    "longitude": "121.5345206"
  },
  {
    "name": "統一超商",
    "add": "台北市中山區松江路208號",
    "phone": "02-25412232",
    "disc": "650ml以上折價2元,以下折價1元",
    "latitude": "25.0578442",
    "longitude": "121.5329186"
  },
  {
    "name": "統一超商",
    "add": "台北市中山區民生東路一段46號46-1號1樓",
    "phone": "02-25216905",
    "disc": "650ml以上折價2元,以下折價1元",
    "latitude": "25.0579518",
    "longitude": "121.5246524"
  },
  {
    "name": "統一超商",
    "add": "台北市中山區中山北路二段11巷3號1樓",
    "phone": "02-25819363",
    "disc": "650ml以上折價2元,以下折價1元",
    "latitude": "25.0528239",
    "longitude": "121.5234036"
  },
  {
    "name": "統一超商",
    "add": "台北市中山區長春路168號",
    "phone": "02-25045845",
    "disc": "650ml以上折價2元,以下折價1元",
    "latitude": "25.054593",
    "longitude": "121.533423"
  },
  {
    "name": "統一超商",
    "add": "台北市中山區八德路二段314號",
    "phone": "02-27765865",
    "disc": "650ml以上折價2元,以下折價1元",
    "latitude": "25.047182",
    "longitude": "121.542807"
  },
  {
    "name": "統一超商",
    "add": "台北市中山區建國北路三段91號",
    "phone": "02-25069116",
    "disc": "650ml以上折價2元,以下折價1元",
    "latitude": "25.0657115",
    "longitude": "121.5368739"
  },
  {
    "name": "統一超商",
    "add": "台北市中山區北安路839-1號",
    "phone": "02-85093170",
    "disc": "650ml以上折價2元,以下折價1元",
    "latitude": "25.084665",
    "longitude": "121.557303"
  },
  {
    "name": "統一超商",
    "add": "台北市中山區錦西街16號",
    "phone": "02-25311037",
    "disc": "650ml以上折價2元,以下折價1元",
    "latitude": "25.0602699",
    "longitude": "121.5213021"
  },
  {
    "name": "統一超商",
    "add": "台北市中山區南京東路一段132巷8號",
    "phone": "02-25425330",
    "disc": "650ml以上折價2元,以下折價1元",
    "latitude": "25.0513075",
    "longitude": "121.5270438"
  },
  {
    "name": "統一超商",
    "add": "台北市中山區吉林路97號99號1樓",
    "phone": "02-25630883",
    "disc": "650ml以上折價2元,以下折價1元",
    "latitude": "25.0558735",
    "longitude": "121.530293"
  },
  {
    "name": "統一超商",
    "add": "台北市中山區雙城街30號1樓",
    "phone": "02-25951416",
    "disc": "650ml以上折價2元,以下折價1元",
    "latitude": "25.0659868",
    "longitude": "121.5241754"
  },
  {
    "name": "統一超商",
    "add": "台北市中山區復興北路164號1樓",
    "phone": "02-27184351",
    "disc": "650ml以上折價2元,以下折價1元",
    "latitude": "25.0535134",
    "longitude": "121.5437149"
  },
  {
    "name": "統一超商",
    "add": "台北市中山區錦州街263號",
    "phone": "02-25122462",
    "disc": "650ml以上折價2元,以下折價1元",
    "latitude": "25.0604699",
    "longitude": "121.5349988"
  },
  {
    "name": "統一超商",
    "add": "台北市中山區明水路636號樂群三路1號",
    "phone": "02-85027760",
    "disc": "650ml以上折價2元,以下折價1元",
    "latitude": "25.0828561",
    "longitude": "121.5513004"
  },
  {
    "name": "統一超商",
    "add": "台北市中山區長安東路一段75號1樓",
    "phone": "02-25676401",
    "disc": "650ml以上折價2元,以下折價1元",
    "latitude": "25.0485188",
    "longitude": "121.5279357"
  },
  {
    "name": "統一超商",
    "add": "台北市中山區民生東路二段157號",
    "phone": "02-25164363",
    "disc": "650ml以上折價2元,以下折價1元",
    "latitude": "25.0581224",
    "longitude": "121.5358553"
  },
  {
    "name": "統一超商",
    "add": "台北市中山區一江街11號13號",
    "phone": "02-25815255",
    "disc": "650ml以上折價2元,以下折價1元",
    "latitude": "25.0511675",
    "longitude": "121.531581"
  },
  {
    "name": "統一超商",
    "add": "台北市中山區南京東路二段115巷1號",
    "phone": "02-25022910",
    "disc": "650ml以上折價2元,以下折價1元",
    "latitude": "25.0526117",
    "longitude": "121.5336877"
  },
  {
    "name": "統一超商",
    "add": "台北市中山區長安東路二段178號178-1號1樓",
    "phone": "02-27774809",
    "disc": "650ml以上折價2元,以下折價1元",
    "latitude": "25.048241",
    "longitude": "121.5406915"
  },
  {
    "name": "統一超商",
    "add": "台北市中山區民生東路三段31號",
    "phone": "02-25036845",
    "disc": "650ml以上折價2元,以下折價1元",
    "latitude": "25.0580663",
    "longitude": "121.539111"
  },
  {
    "name": "統一超商",
    "add": "台北市中山區龍江路104號1樓",
    "phone": "02-25079295",
    "disc": "650ml以上折價2元,以下折價1元",
    "latitude": "25.052747",
    "longitude": "121.540255"
  },
  {
    "name": "統一超商",
    "add": "台北市中山區明水路581巷15號1樓",
    "phone": "02-85098737",
    "disc": "650ml以上折價2元,以下折價1元",
    "latitude": "25.080141",
    "longitude": "121.550966"
  },
  {
    "name": "統一超商",
    "add": "台北市中山區林森北路572號",
    "phone": "02-25931799",
    "disc": "650ml以上折價2元,以下折價1元",
    "latitude": "25.0649958",
    "longitude": "121.5255349"
  },
  {
    "name": "統一超商",
    "add": "台北市中山區南京東路二段11號1樓",
    "phone": "02-25420316",
    "disc": "650ml以上折價2元,以下折價1元",
    "latitude": "25.0523055",
    "longitude": "121.5284519"
  },
  {
    "name": "統一超商",
    "add": "台北市中山區興安街112號一樓",
    "phone": "02-25026965",
    "disc": "650ml以上折價2元,以下折價1元",
    "latitude": "25.0559021",
    "longitude": "121.543122"
  },
  {
    "name": "統一超商",
    "add": "台北市中山區明水路397巷7弄25號1樓",
    "phone": "02-25329027",
    "disc": "650ml以上折價2元,以下折價1元",
    "latitude": "25.0781193",
    "longitude": "121.5494913"
  },
  {
    "name": "統一超商",
    "add": "台北市中山區民生東路二段113號",
    "phone": "02-25434337",
    "disc": "650ml以上折價2元,以下折價1元",
    "latitude": "25.0580554",
    "longitude": "121.5315574"
  },
  {
    "name": "統一超商",
    "add": "台北市中山區遼寧街110號1樓",
    "phone": "02-25148676",
    "disc": "650ml以上折價2元,以下折價1元",
    "latitude": "25.0525531",
    "longitude": "121.5419221"
  },
  {
    "name": "統一超商",
    "add": "台北市中山區長春路67號",
    "phone": "02-25641630",
    "disc": "650ml以上折價2元,以下折價1元",
    "latitude": "25.0550438",
    "longitude": "121.5265302"
  },
  {
    "name": "統一超商",
    "add": "台北市中山區民權東路二段26號",
    "phone": "02-21001511",
    "disc": "650ml以上折價2元,以下折價1元",
    "latitude": "25.0623645",
    "longitude": "121.5288989"
  },
  {
    "name": "統一超商",
    "add": "台北市中山區龍江路384巷1號",
    "phone": "02-25013144",
    "disc": "650ml以上折價2元,以下折價1元",
    "latitude": "25.0668806",
    "longitude": "121.5408794"
  },
  {
    "name": "統一超商",
    "add": "台北市中山區錦州街8號",
    "phone": "02-25418586",
    "disc": "650ml以上折價2元,以下折價1元",
    "latitude": "25.0602323",
    "longitude": "121.5236706"
  },
  {
    "name": "統一超商",
    "add": "台北市中山區松江路101號",
    "phone": "02-25179248",
    "disc": "650ml以上折價2元,以下折價1元",
    "latitude": "25.0511507",
    "longitude": "121.5332607"
  },
  {
    "name": "統一超商",
    "add": "台北市中山區南京東路三段208號1樓",
    "phone": "02-87738717",
    "disc": "650ml以上折價2元,以下折價1元",
    "latitude": "25.051673",
    "longitude": "121.5431917"
  },
  {
    "name": "統一超商",
    "add": "台北市中山區中山北路一段105巷13號",
    "phone": "02-25604745",
    "disc": "650ml以上折價2元,以下折價1元",
    "latitude": "25.0507867",
    "longitude": "121.5233481"
  },
  {
    "name": "統一超商",
    "add": "台北市中山區建國北路二段127號1樓",
    "phone": "02-25080523",
    "disc": "650ml以上折價2元,以下折價1元",
    "latitude": "25.059951",
    "longitude": "121.537333"
  },
  {
    "name": "統一超商",
    "add": "台北市中山區民權東路二段96號98號1樓",
    "phone": "02-25679782",
    "disc": "650ml以上折價2元,以下折價1元",
    "latitude": "25.0623477",
    "longitude": "121.5318334"
  },
  {
    "name": "統一超商",
    "add": "台北市中山區建國北路二段13號1樓",
    "phone": "02-25177302",
    "disc": "650ml以上折價2元,以下折價1元",
    "latitude": "25.053754",
    "longitude": "121.537282"
  },
  {
    "name": "統一超商",
    "add": "台北市中山區龍江路356巷39及41號1樓",
    "phone": "02-25171393",
    "disc": "650ml以上折價2元,以下折價1元",
    "latitude": "25.066155",
    "longitude": "121.539345"
  },
  {
    "name": "統一超商",
    "add": "台北市中山區林森北路107巷15號1樓",
    "phone": "02-25239327",
    "disc": "650ml以上折價2元,以下折價1元",
    "latitude": "25.0503204",
    "longitude": "121.5256788"
  },
  {
    "name": "統一超商",
    "add": "台北市中山區龍江路239號1樓",
    "phone": "02-25167713",
    "disc": "650ml以上折價2元,以下折價1元",
    "latitude": "25.0582971",
    "longitude": "121.5408346"
  },
  {
    "name": "統一超商",
    "add": "台北市中山區樂群二路154號1樓",
    "phone": "02-85012964",
    "disc": "650ml以上折價2元,以下折價1元",
    "latitude": "25.0796945",
    "longitude": "121.5571768"
  },
  {
    "name": "統一超商",
    "add": "台北市中山區樂群二路206號1樓",
    "phone": "02-85029131",
    "disc": "650ml以上折價2元,以下折價1元",
    "latitude": "25.0796566",
    "longitude": "121.5592693"
  },
  {
    "name": "統一超商",
    "add": "台北市中山區吉林路365號367號",
    "phone": "02-25943806",
    "disc": "650ml以上折價2元,以下折價1元",
    "latitude": "25.0649595",
    "longitude": "121.5305258"
  },
  {
    "name": "統一超商",
    "add": "台北市中山區松江路65號",
    "phone": "02-25045817",
    "disc": "650ml以上折價2元,以下折價1元",
    "latitude": "25.0491558",
    "longitude": "121.5331884"
  },
  {
    "name": "統一超商",
    "add": "台北市中山區北安路621巷48號",
    "phone": "02-25329890",
    "disc": "650ml以上折價2元,以下折價1元",
    "latitude": "25.0827368",
    "longitude": "121.5465264"
  },
  {
    "name": "統一超商",
    "add": "台北市中山區中山北路二段98號",
    "phone": "02-25616582",
    "disc": "650ml以上折價2元,以下折價1元",
    "latitude": "25.0598963",
    "longitude": "121.5226656"
  },
  {
    "name": "統一超商",
    "add": "台北市中山區北安路604號606號",
    "phone": "02-25321290",
    "disc": "650ml以上折價2元,以下折價1元",
    "latitude": "25.081951",
    "longitude": "121.548997"
  },
  {
    "name": "統一超商",
    "add": "台北市中山區中山北路三段47號",
    "phone": "02-25854392",
    "disc": "650ml以上折價2元,以下折價1元",
    "latitude": "25.066614",
    "longitude": "121.5227165"
  },
  {
    "name": "統一超商",
    "add": "台北市中山區長安東路二段43號45-1號1樓",
    "phone": "02-25223791",
    "disc": "650ml以上折價2元,以下折價1元",
    "latitude": "25.0486124",
    "longitude": "121.5317595"
  },
  {
    "name": "統一超商",
    "add": "台北市中山區中山北路二段40-1號",
    "phone": "02-25676232",
    "disc": "650ml以上折價2元,以下折價1元",
    "latitude": "25.054554",
    "longitude": "121.522468"
  },
  {
    "name": "統一超商",
    "add": "台北市中山區農安街178號",
    "phone": "02-25050197",
    "disc": "650ml以上折價2元,以下折價1元",
    "latitude": "25.0645483",
    "longitude": "121.5348399"
  },
  {
    "name": "統一超商",
    "add": "台北市中山區民權東路三段73號",
    "phone": "02-25159982",
    "disc": "650ml以上折價2元,以下折價1元",
    "latitude": "25.0625794",
    "longitude": "121.5435745"
  },
  {
    "name": "統一超商",
    "add": "台北市中山區錦州街263號",
    "phone": "02-25122462",
    "disc": "650ml以上折價2元,以下折價1元",
    "latitude": "25.0604699",
    "longitude": "121.5349988"
  },
  {
    "name": "統一超商",
    "add": "台北市中山區農安街178號",
    "phone": "02-25050197",
    "disc": "650ml以上折價2元,以下折價1元",
    "latitude": "25.0645483",
    "longitude": "121.5348399"
  },
  {
    "name": "統一超商",
    "add": "台北市中山區朱崙街60號1樓",
    "phone": "02-27788824",
    "disc": "650ml以上折價2元,以下折價1元",
    "latitude": "25.0498263",
    "longitude": "121.5435807"
  },
  {
    "name": "統一超商",
    "add": "台北市中山區南京東路二段11號1樓",
    "phone": "02-25420316",
    "disc": "650ml以上折價2元,以下折價1元",
    "latitude": "25.0523055",
    "longitude": "121.5284519"
  },
  {
    "name": "統一超商",
    "add": "台北市中山區樂群三路218號1樓",
    "phone": "02-85023114",
    "disc": "650ml以上折價2元,以下折價1元",
    "latitude": "25.0823188",
    "longitude": "121.5579616"
  },
  {
    "name": "麻古茶坊",
    "add": "台北市中山區農安街8-6號1樓",
    "phone": "02-25868310",
    "disc": "任何飲品皆折2元",
    "latitude": "25.064822",
    "longitude": "121.52343"
  },
  {
    "name": "喫茶趣ToGo",
    "add": "台北市中山區林森北路261號",
    "phone": "(02)2562-3098",
    "disc": "任何飲品皆2元",
    "latitude": "25.0544244",
    "longitude": "121.525693"
  },
  {
    "name": "喫茶趣ToGo",
    "add": "台北市中山區中山北路一段105巷11號",
    "phone": "(02)2541-5660",
    "disc": "任何飲品皆2元",
    "latitude": "25.0509035",
    "longitude": "121.523097"
  },
  {
    "name": "喫茶趣ToGo",
    "add": "台北市中山區民生東路一段26-2號",
    "phone": "(02)2511-2213",
    "disc": "任何飲品皆2元",
    "latitude": "25.0579108",
    "longitude": "121.5238552"
  },
  {
    "name": "喫茶趣ToGo",
    "add": "台北市中山區民權西路60號1樓",
    "phone": "(02)2563-1396",
    "disc": "任何飲品皆2元",
    "latitude": "25.0625922",
    "longitude": "121.5202115"
  },
  {
    "name": "喫茶趣ToGo",
    "add": "台北市中山區南京西路12號B2",
    "phone": "(02)2563-1369",
    "disc": "任何飲品皆2元",
    "latitude": "25.0523038",
    "longitude": "121.5211048"
  },
  {
    "name": "喫茶趣ToGo",
    "add": "台北市中山區復興北路84號1樓",
    "phone": "(02)2781-4649",
    "disc": "任何飲品皆2元",
    "latitude": "25.0512152",
    "longitude": "121.5438103"
  },
  {
    "name": "喫茶趣ToGo",
    "add": "台北市中山區敬業三路20號B1",
    "phone": "(02)8501-2367",
    "disc": "任何飲品皆2元",
    "latitude": "25.0833072",
    "longitude": "121.5571648"
  },
  {
    "name": "喫茶趣ToGo",
    "add": "台北市中山區林森北路261號",
    "phone": "(02)2562-3098",
    "disc": "任何飲品皆折2元",
    "latitude": "25.0544244",
    "longitude": "121.525693"
  },
  {
    "name": "喫茶趣ToGo",
    "add": "台北市中山區中山北路一段105巷11號",
    "phone": "(02)2541-5660",
    "disc": "任何飲品皆折2元",
    "latitude": "25.0509035",
    "longitude": "121.523097"
  },
  {
    "name": "喫茶趣ToGo",
    "add": "台北市中山區民生東路一段26-2號",
    "phone": "(02)2511-2213",
    "disc": "任何飲品皆折2元",
    "latitude": "25.0579108",
    "longitude": "121.5238552"
  },
  {
    "name": "喫茶趣ToGo",
    "add": "台北市中山區民權西路60號1樓",
    "phone": "(02)2563-1396",
    "disc": "任何飲品皆折2元",
    "latitude": "25.0625922",
    "longitude": "121.5202115"
  },
  {
    "name": "喫茶趣ToGo",
    "add": "台北市中山區南京西路12號B2",
    "phone": "(02)2563-1369",
    "disc": "任何飲品皆折2元",
    "latitude": "25.0523038",
    "longitude": "121.5211048"
  },
  {
    "name": "喫茶趣ToGo",
    "add": "台北市中山區復興北路84號1樓",
    "phone": "(02)2781-4649",
    "disc": "任何飲品皆折2元",
    "latitude": "25.0512152",
    "longitude": "121.5438103"
  },
  {
    "name": "喫茶趣ToGo",
    "add": "台北市中山區敬業三路20號B1",
    "phone": "(02)8501-2367",
    "disc": "任何飲品皆折2元",
    "latitude": "25.0833072",
    "longitude": "121.5571648"
  },
  {
    "name": "喫茶趣ToGo",
    "add": "台北市中山區敬業三路123號2樓",
    "phone": "(02)7701-3368",
    "disc": "任何飲品皆折2元",
    "latitude": "25.0810846",
    "longitude": "121.5554643"
  },
  {
    "name": "萃茶風",
    "add": "台北市中山區吉林路351號",
    "phone": "02-25956142",
    "disc": "650ml以上折價2元,以下折價1元",
    "latitude": "25.0647188",
    "longitude": "121.5304513"
  },
  {
    "name": "萃茶風",
    "add": "台北市中山區龍江路12-1號",
    "phone": "02-27116106",
    "disc": "650ml以上折價2元,以下折價1元",
    "latitude": "25.0476588",
    "longitude": "121.5402711"
  },
  {
    "name": "黑丸嫩仙草",
    "add": "台北市中山區中山南路7號B1",
    "phone": "0972-716-257",
    "disc": "任何飲品皆折3元",
    "latitude": "25.0402741",
    "longitude": "121.5191591"
  },
  {
    "name": "黑丸嫩仙草",
    "add": "台北市中山區大直街133號",
    "phone": "02-8509-6667",
    "disc": "任何飲品皆折3元",
    "latitude": "25.08408",
    "longitude": "121.549056"
  },
  {
    "name": "圓石禪飲",
    "add": "台北市中山區遼寧街13號",
    "phone": "02-2776-3050",
    "disc": "650ml以上折價2元,以下折價1元",
    "latitude": "25.047627",
    "longitude": "121.542214"
  },
  {
    "name": "路易莎咖啡",
    "add": "台北市中山區合江街152號",
    "phone": "02-2509-8981",
    "disc": "任何飲品皆折2元(本店飲品為240ml以上)",
    "latitude": "25.0600225",
    "longitude": "121.5391135"
  },
  {
    "name": "路易莎咖啡",
    "add": "台北市中山區四平街55號",
    "phone": "02-2515-7865",
    "disc": "任何飲品皆折2元(本店飲品為240ml以上)",
    "latitude": "25.0537685",
    "longitude": "121.5335221"
  },
  {
    "name": "路易莎咖啡",
    "add": "台北市中山區松江路313巷22號之2",
    "phone": "02-2517-7759",
    "disc": "任何飲品皆折2元(本店飲品為240ml以上)",
    "latitude": "25.0617122",
    "longitude": "121.5347548"
  },
  {
    "name": "路易莎咖啡",
    "add": "台北市中山區中山北路一段140巷138號",
    "phone": "02-2531-7138",
    "disc": "任何飲品皆折2元(本店飲品為240ml以上)",
    "latitude": "25.0514202",
    "longitude": "121.5220555"
  },
  {
    "name": "路易莎咖啡",
    "add": "台北市中山區長安東路二段129巷3號",
    "phone": "02-2506-3863",
    "disc": "任何飲品皆折2元(本店飲品為240ml以上)",
    "latitude": "25.0488907",
    "longitude": "121.5361268"
  },
  {
    "name": "路易莎咖啡",
    "add": "台北市中山區錦州街5號",
    "phone": "02-2563-5313",
    "disc": "任何飲品皆折2元(本店飲品為240ml以上)",
    "latitude": "25.0604349",
    "longitude": "121.5238947"
  },
  {
    "name": "路易莎咖啡",
    "add": "台北市中山區雙城街17-6號",
    "phone": "02-2599-3207",
    "disc": "任何飲品皆折2元(本店飲品為240ml以上)",
    "latitude": "25.0652398",
    "longitude": "121.5243641"
  },
  {
    "name": "路易莎咖啡",
    "add": "台北市中山區八德路二段287號",
    "phone": "02-2777-5852",
    "disc": "任何飲品皆折2元(本店飲品為240ml以上)",
    "latitude": "25.0471885",
    "longitude": "121.5417803"
  },
  {
    "name": "路易莎咖啡",
    "add": "台北市中山區中山北路二段59巷4號",
    "phone": "02-2523-2311",
    "disc": "任何飲品皆折2元(本店飲品為240ml以上)",
    "latitude": "25.0556219",
    "longitude": "121.5238038"
  },
  {
    "name": "路易莎咖啡",
    "add": "台北市中山區北安路621巷49號",
    "phone": "02-8509-8222",
    "disc": "任何飲品皆折2元(本店飲品為240ml以上)",
    "latitude": "25.082998",
    "longitude": "121.5466682"
  },
  {
    "name": "路易莎咖啡",
    "add": "台北市中山區南京東路二段38號",
    "phone": "02-2567-5334",
    "disc": "任何飲品皆折2元(本店飲品為240ml以上)",
    "latitude": "25.0518603",
    "longitude": "121.5295408"
  },
  {
    "name": "路易莎咖啡",
    "add": "台北市中山區伊通街85號",
    "phone": "02-2515-6765",
    "disc": "任何飲品皆折2元(本店飲品為240ml以上)",
    "latitude": "25.0528746",
    "longitude": "121.5349538"
  },
  {
    "name": "路易莎咖啡",
    "add": "台北市中山區撫順街33號",
    "phone": "02-2586-6167",
    "disc": "任何飲品皆折2元(本店飲品為240ml以上)",
    "latitude": "25.0635625",
    "longitude": "121.5198888"
  },
  {
    "name": "路易莎咖啡",
    "add": "台北市中山區復興北路380巷8號",
    "phone": "02-2509-2015",
    "disc": "任何飲品皆折2元(本店飲品為240ml以上)",
    "latitude": "25.0610035",
    "longitude": "121.5435702"
  },
  {
    "name": "路易莎咖啡",
    "add": "台北市中山區龍江路393號",
    "phone": "02-2517-6600",
    "disc": "任何飲品皆折2元(本店飲品為240ml以上)",
    "latitude": "25.0653747",
    "longitude": "121.5411175"
  },
  {
    "name": "路易莎咖啡",
    "add": "台北市中山區樂群二路150號",
    "phone": "02-8502-9991",
    "disc": "任何飲品皆折2元(本店飲品為240ml以上)",
    "latitude": "25.0797156",
    "longitude": "121.557071"
  },
  {
    "name": "路易莎咖啡",
    "add": "台北市中山區民生東路二段150號",
    "phone": "02-2541-9655",
    "disc": "任何飲品皆折2元(本店飲品為240ml以上)",
    "latitude": "25.0578088",
    "longitude": "121.5324104"
  },
  {
    "name": "路易莎咖啡",
    "add": "台北市中山區遼寧街112號",
    "phone": "02-2514-9963",
    "disc": "任何飲品皆折2元(本店飲品為240ml以上)",
    "latitude": "25.0525759",
    "longitude": "121.541847"
  },
  {
    "name": "路易莎咖啡",
    "add": "台北市中山區南京東路二段206號",
    "phone": "02-2507-9817",
    "disc": "任何飲品皆折2元(本店飲品為240ml以上)",
    "latitude": "25.0518085",
    "longitude": "121.5353947"
  },
  {
    "name": "路易莎咖啡",
    "add": "台北市中山區長安東路二段78-1號",
    "phone": "02-2508-3302",
    "disc": "任何飲品皆折2元(本店飲品為240ml以上)",
    "latitude": "25.0483378",
    "longitude": "121.5339034"
  },
  {
    "name": "路易莎咖啡",
    "add": "台北市中山區復興南路一段42號",
    "phone": "02-2777-5800",
    "disc": "任何飲品皆折2元(本店飲品為240ml以上)",
    "latitude": "25.045247",
    "longitude": "121.543594"
  },
  {
    "name": "樂法",
    "add": "台北市中山區林森北路263-4.263-5號",
    "phone": "02-25671175",
    "disc": "任何飲品皆折2元",
    "latitude": "25.0545937",
    "longitude": "121.5255416"
  },
  {
    "name": "樺達奶茶",
    "add": "台北市中山區敬業三路123號2樓",
    "phone": "0973-851-970",
    "disc": "任何飲品皆折2元",
    "latitude": "25.0810846",
    "longitude": "121.5554643"
  },
  {
    "name": "橘子工坊",
    "add": "台北市中山區林森北路302號",
    "phone": "(02)25113322",
    "disc": "每杯1點，集滿10點兌換或折抵30元飲品",
    "latitude": "25.0559017",
    "longitude": "121.5253209"
  },
  {
    "name": "鮮茶道presotea",
    "add": "台北市中山區大直街37號",
    "phone": "(02)2533-3302",
    "disc": "600ml以上折價2元,以下折價1元",
    "latitude": "25.0824344",
    "longitude": "121.5464881"
  }
  
 ]
 